{"type":"FeatureCollection","features":[{"type":"Feature","id":"heavymachine.1","geometry":{"type":"Point","coordinates":[120.31831581,22.68281835]},"geometry_name":"ogr_geometry","properties":{"協力廠商":"聖杰營造公司","地址":"左營區文慈路196號17樓之1","電話":"07-6243177","傳真":null,"手機":"0933-329095","聯絡人":"洪有銘","救災能力":"挖土機1部,油壓破碎機1部,卡車2部,柏油路面切割機1部,手提混凝土破碎機2部,抽水機2部,汽油發電機1部,小型壓路機1部","管束":"2","x":120.318316,"y":22.682818}},{"type":"Feature","id":"heavymachine.2","geometry":{"type":"Point","coordinates":[120.35874028,22.51332788]},"geometry_name":"ogr_geometry","properties":{"協力廠商":"將門公司","地址":"小港區朝鳳街21號","電話":"07-8717420","傳真":null,"手機":"0939-166358","聯絡人":"楊暉華","救災能力":"全吊車","管束":"2","x":120.35874,"y":22.513328}},{"type":"Feature","id":"heavymachine.3","geometry":{"type":"Point","coordinates":[120.49299596,22.46266593]},"geometry_name":"ogr_geometry","properties":{"協力廠商":"永強公司","地址":"屏東縣東港鎮下?里下?路57號","電話":null,"傳真":null,"手機":"0937-385717","聯絡人":"陳溪水","救災能力":"挖土機2部,小山貓2部","管束":"3","x":120.492996,"y":22.462666}},{"type":"Feature","id":"heavymachine.4","geometry":{"type":"Point","coordinates":[120.40745268,22.49633471]},"geometry_name":"ogr_geometry","properties":{"協力廠商":"中油林園營繕課","地址":"林園區石化二路3號","電話":null,"傳真":null,"手機":"0918-818133,0937-311186","聯絡人":"謝孝忠,蔡政龍","救災能力":"挖土機1部,小山貓1部","管束":"3,4,6,8","x":120.407453,"y":22.496335}},{"type":"Feature","id":"heavymachine.5","geometry":{"type":"Point","coordinates":[120.3907303,22.50683313]},"geometry_name":"ogr_geometry","properties":{"協力廠商":"建璋機械工程公司","地址":"林園區忠孝西路131號","電話":null,"傳真":null,"手機":"0982-782806,0922-636912","聯絡人":"余韋賢","救災能力":"5噸堆高機,15噸吊卡,125KVA發電機1台,90KVA發電機1台","管束":"3,4","x":120.39073,"y":22.506833}},{"type":"Feature","id":"heavymachine.6","geometry":{"type":"Point","coordinates":[120.32979976,22.56502147]},"geometry_name":"ogr_geometry","properties":{"協力廠商":"宏泰","地址":"小港區東亞路5號","電話":"07-8151111","傳真":null,"手機":null,"聯絡人":"許志清","救災能力":"全吊車","管束":"3","x":120.3298,"y":22.565021}},{"type":"Feature","id":"heavymachine.7","geometry":{"type":"Point","coordinates":[120.29807231,23.57603011]},"geometry_name":"ogr_geometry","properties":{"協力廠商":"順達重機起重行","地址":"雲林縣北港鎮文星路113號","電話":"05-7821961","傳真":null,"手機":null,"聯絡人":"李順風","救災能力":"全吊車","管束":"3","x":120.298072,"y":23.57603}},{"type":"Feature","id":"heavymachine.8","geometry":{"type":"Point","coordinates":[120.26548147,22.73896361]},"geometry_name":"ogr_geometry","properties":{"協力廠商":"冠傑土木工程行","地址":"梓官區典寶里大舍南路373巷33號1樓","電話":"07-3654787","傳真":null,"手機":null,"聯絡人":"林貴元","救災能力":"怪手,山貓","管束":"3","x":120.265481,"y":22.738964}},{"type":"Feature","id":"heavymachine.9","geometry":{"type":"Point","coordinates":[120.34474447,22.5319618]},"geometry_name":"ogr_geometry","properties":{"協力廠商":"中油大林營繕課","地址":"小港區沿海四路50號","電話":null,"傳真":null,"手機":"0932-015936","聯絡人":"李春淋","救災能力":"挖土機1部,小山貓1部","管束":"4","x":120.344744,"y":22.531962}},{"type":"Feature","id":"heavymachine.10","geometry":{"type":"Point","coordinates":[120.30663832,22.64956134]},"geometry_name":"ogr_geometry","properties":{"協力廠商":"宏偉營造公司","地址":"三民區吉林街297號","電話":"07-3239900","傳真":null,"手機":"0910-725702","聯絡人":"蔡進益","救災能力":"120噸挖土機1部,15噸吊車1部,20噸卡車1部","管束":"5","x":120.306638,"y":22.649561}},{"type":"Feature","id":"heavymachine.11","geometry":{"type":"Point","coordinates":[120.42192205,22.56540849]},"geometry_name":"ogr_geometry","properties":{"協力廠商":"富菖營造有限公司","地址":"大寮區潮寮路168巷17-1號","電話":"07-7872649","傳真":null,"手機":"0919-537731","聯絡人":"朱順乾","救災能力":"挖土機1部,壓路機1部,山貓1部,水車1部","管束":"5","x":120.421922,"y":22.565408}},{"type":"Feature","id":"heavymachine.12","geometry":{"type":"Point","coordinates":[120.4700483,22.61537863]},"geometry_name":"ogr_geometry","properties":{"協力廠商":"億昌吊車","地址":"屏東縣萬丹鄉大昌路454號","電話":"08-7071570","傳真":null,"手機":"0952-108392","聯絡人":"李小姐","救災能力":"全吊車","管束":"5","x":120.470048,"y":22.615379}},{"type":"Feature","id":"heavymachine.13","geometry":{"type":"Point","coordinates":[120.4198352,22.62792291]},"geometry_name":"ogr_geometry","properties":{"協力廠商":"璉宏吊車","地址":"大寮區溪寮里溪寮路46號","電話":"07-6512839","傳真":null,"手機":null,"聯絡人":"郭金鍾","救災能力":"全吊車","管束":"5","x":120.419835,"y":22.627923}},{"type":"Feature","id":"heavymachine.14","geometry":{"type":"Point","coordinates":[120.31831581,22.68281835]},"geometry_name":"ogr_geometry","properties":{"協力廠商":"聖杰營造公司","地址":"左營區文慈路196號17樓之1","電話":"07-6243177","傳真":null,"手機":"0933-329095","聯絡人":"洪有銘","救災能力":"挖土機1部,油壓破碎機1部,卡車2部,柏油路面切割機1部,手提混凝土破碎機2部,抽水機2部,汽油發電機1部,小型壓路機1部","管束":"7","x":120.318316,"y":22.682818}},{"type":"Feature","id":"heavymachine.15","geometry":{"type":"Point","coordinates":[120.2879364,22.71570302]},"geometry_name":"ogr_geometry","properties":{"協力廠商":"金太洋營造公司","地址":"楠梓區右昌街415號","電話":null,"傳真":null,"手機":"0926-088779","聯絡人":"李權庭","救災能力":"挖土機1部,油壓破碎機1部,山貓1部,卡車 2部,祡油發電機1部,小型壓路機1部,柏油路面切割機1部,手提混凝土破碎機3部,抽水機3部","管束":"6,7,8","x":120.287936,"y":22.715703}},{"type":"Feature","id":"heavymachine.16","geometry":{"type":"Point","coordinates":[120.33046588,22.60113027]},"geometry_name":"ogr_geometry","properties":{"協力廠商":"逢上企業有限公司","地址":"前鎮區崗山南街442巷12號","電話":"07-7616702","傳真":"07-7616705","手機":"0960-370024","聯絡人":"車明山","救災能力":"吊車3部,吊卡車1部","管束":"6,8","x":120.330466,"y":22.60113}},{"type":"Feature","id":"heavymachine.17","geometry":{"type":"Point","coordinates":[120.37374919,22.74073069]},"geometry_name":"ogr_geometry","properties":{"協力廠商":"眾統工程有限公司","地址":"大社區大社路401巷60號","電話":"07-3561572","傳真":"07-3560283","手機":"0910-834596","聯絡人":"章玉華","救災能力":"抽水車1部,怪手2部,山貓2部","管束":"6,8","x":120.373749,"y":22.740731}},{"type":"Feature","id":"heavymachine.18","geometry":{"type":"Point","coordinates":[120.32113147,22.61496272]},"geometry_name":"ogr_geometry","properties":{"協力廠商":"上嘉工程有限公司","地址":"前鎮區廣東三街422號","電話":"07-7712879","傳真":null,"手機":"0925-523162","聯絡人":"沈明忠","救災能力":"25噸吊車1部,45噸吊車1部,130噸吊車1部","管束":"6,8","x":120.321131,"y":22.614963}},{"type":"Feature","id":"heavymachine.19","geometry":{"type":"Point","coordinates":[120.32816577,22.70899367]},"geometry_name":"ogr_geometry","properties":{"協力廠商":"大昌土木包工業","地址":"仁武區華北街28號3樓","電話":"07-3552228","傳真":null,"手機":"0920-280599,0932-765948","聯絡人":"劉志宏,李才旺","救災能力":"挖土機2部,小山貓1部","管束":"6,8","x":120.328166,"y":22.708994}},{"type":"Feature","id":"heavymachine.20","geometry":{"type":"Point","coordinates":[120.32979976,22.56502147]},"geometry_name":"ogr_geometry","properties":{"協力廠商":"宏泰","地址":"小港區東亞路5號","電話":"07-8151111","傳真":null,"手機":null,"聯絡人":"許志清","救災能力":"全吊車","管束":"6,8","x":120.3298,"y":22.565021}},{"type":"Feature","id":"heavymachine.21","geometry":{"type":"Point","coordinates":[120.36996004,22.58328212]},"geometry_name":"ogr_geometry","properties":{"協力廠商":"龍罡(能威)","地址":"小港區高鳳路82之72號","電話":"07-7915842","傳真":null,"手機":null,"聯絡人":"何小姐","救災能力":"全吊車","管束":"6,8","x":120.36996,"y":22.583282}},{"type":"Feature","id":"heavymachine.22","geometry":{"type":"Point","coordinates":[120.36793509,22.58674191]},"geometry_name":"ogr_geometry","properties":{"協力廠商":"百鑫","地址":"小港區旭日街48號","電話":"07-7914089","傳真":null,"手機":null,"聯絡人":"李立信","救災能力":"吊卡車","管束":"6,8","x":120.367935,"y":22.586742}},{"type":"Feature","id":"heavymachine.23","geometry":{"type":"Point","coordinates":[120.33435003,22.64626521]},"geometry_name":"ogr_geometry","properties":{"協力廠商":"柏鈞工程行","地址":"三民區大豐二路346號3F之2","電話":"07-3817678","傳真":null,"手機":null,"聯絡人":"顏成智","救災能力":"挖土機1部,點焊機1台,卡車2部","管束":"6,8","x":120.33435,"y":22.646265}},{"type":"Feature","id":"heavymachine.24","geometry":{"type":"Point","coordinates":[120.30990029,22.71918578]},"geometry_name":"ogr_geometry","properties":{"協力廠商":"課生股份有限公司","地址":"楠梓區區東路17巷38號","電話":"07-3686789","傳真":null,"手機":null,"聯絡人":"蔡萬生","救災能力":"挖土機1部,點焊機1台,卡車2部","管束":"6,8","x":120.3099,"y":22.719186}},{"type":"Feature","id":"heavymachine.25","geometry":{"type":"Point","coordinates":[120.30512556,22.64925705]},"geometry_name":"ogr_geometry","properties":{"協力廠商":"嘉雄公司","地址":"三民區歸綏街147號","電話":"07-3717095","傳真":null,"手機":null,"聯絡人":null,"救災能力":"吊車1部","管束":"6,8","x":120.305126,"y":22.649257}},{"type":"Feature","id":"heavymachine.26","geometry":{"type":"Point","coordinates":[120.29957714,22.61326309]},"geometry_name":"ogr_geometry","properties":{"協力廠商":"青成企業","地址":"苓雅區永興街24號","電話":"07-3349075","傳真":null,"手機":null,"聯絡人":"李衍霆","救災能力":"吊車起重機具","管束":"6,8","x":120.299577,"y":22.613263}},{"type":"Feature","id":"heavymachine.27","geometry":{"type":"Point","coordinates":[120.37943887,22.62966647]},"geometry_name":"ogr_geometry","properties":{"協力廠商":"群毅公司","地址":"鳳山區埤頂里鳳埤街50巷25號","電話":null,"傳真":null,"手機":"0932-860083","聯絡人":"李中文","救災能力":"挖土機2部,小山貓2部,30噸吊車1部","管束":"6,8","x":120.379439,"y":22.629666}},{"type":"Feature","id":"heavymachine.28","geometry":{"type":"Point","coordinates":[120.30663832,22.64956134]},"geometry_name":"ogr_geometry","properties":{"協力廠商":"宏偉營造公司","地址":"三民區吉林街297號","電話":null,"傳真":null,"手機":"0935-466383","聯絡人":"凌國銘","救災能力":"挖土機2部,小山貓2部,10噸吊車1部,20噸吊車1部","管束":"6,8","x":120.306638,"y":22.649561}}],"totalFeatures":28,"numberMatched":28,"numberReturned":28,"timeStamp":"2020-07-09T01:15:37.282Z","crs":{"type":"name","properties":{"name":"urn:ogc:def:crs:EPSG::4326"}}}